,City Name,Date,Long,Lat,Temp,Humid,Wind,clouds,Country
0,Albany,1614794303,-73.9662,42.6001,43.0,38,3.0,33,US
1,Carnarvon,1614794581,113.6333,-24.8667,73.4,94,2.3,40,AU
2,Omboué,1614794582,9.2618,-1.5746,81.1,86,7.85,81,GA
3,Qaanaaq,1614794582,-69.3632,77.484,2.01,87,10.29,94,GL
4,Hithadhoo,1614794491,73.0833,-0.6,82.51,70,12.26,12,MV
5,Busselton,1614794583,115.3333,-33.65,71.01,85,8.01,99,AU
6,Khatanga,1614794583,102.5,71.9667,-38.04,88,5.5,0,RU
7,Meadow Lake,1614794539,-106.5436,34.8014,54.0,20,5.73,1,US
8,Bredasdorp,1614794584,20.0403,-34.5322,71.6,73,11.5,2,ZA
9,Kapaa,1614794584,-159.319,22.0752,71.6,68,17.27,75,US
10,Yerbogachën,1614794584,108.0108,61.2767,-36.4,96,2.08,18,RU
11,Punta Arenas,1614794545,-70.9167,-53.15,60.8,41,11.5,20,CL
12,Ushuaia,1614794585,-68.3,-54.8,57.2,51,4.61,20,AR
13,Port Elizabeth,1614794585,25.5701,-33.918,69.8,88,13.8,75,ZA
14,Cape Town,1614794306,18.4232,-33.9258,73.0,68,14.97,40,ZA
15,Auki,1614794586,160.7034,-8.7676,76.14,88,3.74,100,SB
16,Adrar,1614794586,-10.0711,20.5022,81.52,14,11.5,99,MR
17,Los Rastrojos,1614794587,-69.2417,10.0259,89.44,30,5.79,2,VE
18,Debre Birhan,1614794587,39.5333,9.6833,52.45,61,5.88,5,ET
19,Lompoc,1614794517,-120.4579,34.6391,53.01,58,9.1,40,US
20,Rikitea,1614794588,-134.9692,-23.1203,78.76,75,9.37,9,PF
21,Provideniya,1614794589,-173.3,64.3833,-10.89,89,5.1,39,RU
22,Waipawa,1614794589,175.5153,-41.4122,64.4,77,14.97,48,NZ
23,Naantali,1614794590,22.0243,60.4674,37.99,70,9.22,0,FI
24,Kaeo,1614794590,173.7833,-35.1,64.99,97,1.01,84,NZ
25,Iqaluit,1614794591,-68.5145,63.7506,-13.0,64,28.77,75,CA
26,Bluff,1614794471,168.3333,-46.6,52.0,82,8.99,75,NZ
27,Jijiga,1614794591,42.8,9.35,60.78,79,11.39,0,ET
28,Puerto Madryn,1614794579,-65.0385,-42.7692,66.51,81,9.8,100,AR
29,Ketchikan,1614794592,-131.6461,55.3422,37.4,93,14.97,90,US
30,Burns Lake,1614794593,-125.7533,54.2331,32.0,69,5.75,100,CA
31,Geraldton,1614794593,114.6,-28.7667,69.8,88,5.75,6,AU
32,Clyde River,1614794593,-68.5914,70.4692,-7.6,64,16.11,1,CA
33,Severo-Kuril'sk,1614794594,156.125,50.6789,14.04,92,39.53,99,RU
34,Ancud,1614794594,-73.8203,-41.8697,73.4,53,5.75,20,CL
35,Tasiilaq,1614794595,-37.6368,65.6145,26.6,43,19.57,75,GL
36,Kahului,1614794421,-156.47,20.8947,69.01,77,8.05,40,US
37,Vasto,1614794595,14.7059,42.1243,48.0,64,1.66,0,IT
38,Kibre Mengist,1614794596,38.9833,5.8833,67.73,37,1.79,34,ET
39,Raudeberg,1614794596,5.1352,61.9875,37.4,65,13.8,40,NO
40,Cabedelo,1614794597,-34.8339,-6.9811,86.0,66,16.11,40,BR
41,Lebu,1614794598,-73.65,-37.6167,65.89,61,17.74,5,CL
42,Nara,1614794454,135.8049,34.6851,39.0,59,2.55,84,JP
43,Atocha,1614794599,-66.2333,-20.9333,58.26,48,8.08,62,BO
44,Barrow,1614794430,-156.7887,71.2906,-16.6,69,10.36,1,US
45,Jamestown,1614794599,-79.2353,42.097,44.01,67,13.18,1,US
46,Baoro,1614794600,15.9667,5.6667,80.19,18,4.63,100,CF
47,Hobart,1614794553,147.3294,-42.8794,59.0,67,17.27,75,AU
48,Ndélé,1614794601,20.6473,8.4109,84.88,14,6.11,98,CF
49,Ossora,1614794601,163.0719,59.2353,4.23,83,2.21,100,RU
50,Nur-Sultan,1614794306,71.446,51.1801,24.8,93,29.08,90,KZ
51,Weligama,1614794602,80.4167,5.9667,76.01,74,11.88,3,LK
52,Saint George,1614794350,-113.5841,37.1041,60.01,23,6.98,1,US
53,New Norfolk,1614794602,147.0587,-42.7826,59.0,79,1.99,100,AU
54,Avarua,1614794603,-159.775,-21.2078,75.2,94,2.3,75,CK
55,Waingapu,1614794603,120.2641,-9.6567,77.68,80,6.89,98,ID
56,Springdale,1614794583,-94.1288,36.1867,62.6,33,10.36,1,US
57,Mataura,1614794603,168.8643,-46.1927,52.0,82,8.99,47,NZ
58,Nikolskoye,1614794604,30.7861,59.7035,36.0,87,11.18,90,RU
59,Aloleng,1614794604,119.7824,16.1307,78.57,74,9.93,0,PH
60,Flinders,1614794605,150.8552,-34.5833,63.0,79,1.01,95,AU
61,Phan Thiet,1614794605,108.1,10.9333,73.22,82,8.9,14,VN
62,Tiksi,1614794605,128.8694,71.6872,-17.36,99,9.53,100,RU
63,San Cristobal,1614794606,-72.225,7.7669,84.2,54,9.22,40,VE
64,Mar del Plata,1614794606,-57.5575,-38.0023,75.2,83,17.27,20,AR
65,Mahbūbābād,1614794607,80.0167,17.6167,72.54,53,6.69,0,IN
66,Leshukonskoye,1614794607,45.7622,64.8989,11.71,96,4.34,99,RU
67,Horsham,1614794607,-0.3272,51.064,46.99,100,4.61,75,GB
68,Inírida,1614794608,-67.9239,3.8653,89.76,55,1.25,48,CO
69,Aksu,1614794608,80.2644,41.1231,40.3,65,4.29,86,CN
70,Rabak,1614794609,32.74,13.1809,83.12,14,14.41,59,SD
71,Hofn,1614794610,-15.2082,64.2539,32.0,74,8.05,90,IS
72,Hokitika,1614794610,170.9667,-42.7167,54.64,85,5.64,44,NZ
73,Yellowknife,1614794611,-114.3525,62.456,-2.99,71,12.66,20,CA
74,Saskylakh,1614794611,114.0833,71.9167,-41.06,80,2.64,59,RU
75,Erenhot,1614794611,111.9767,43.6475,32.94,82,15.9,0,CN
76,Kirakira,1614794612,161.9205,-10.4544,78.94,85,11.83,100,SB
77,Mayo,1614794612,-76.5119,38.8876,55.0,24,4.61,1,US
78,San Quintín,1614794613,-115.95,30.4833,58.73,72,13.06,25,MX
79,Los Llanos de Aridane,1614794613,-17.9182,28.6585,68.0,64,8.05,75,ES
80,Lahaina,1614794409,-156.6825,20.8783,69.8,60,9.22,20,US
81,Ahipara,1614794614,173.1667,-35.1667,65.64,94,4.59,88,NZ
82,Sarangani,1614794614,125.4636,5.4033,82.27,71,13.8,100,PH
83,Hermanus,1614794615,19.2345,-34.4187,69.01,88,1.01,20,ZA
84,Turaif,1614794615,38.6637,31.6725,59.0,51,6.91,0,SA
85,Batagay,1614794615,134.6333,67.6333,-34.69,82,3.38,100,RU
86,Hilo,1614794409,-155.09,19.7297,66.2,88,3.44,90,US
87,Hīt,1614794616,42.8251,33.6416,67.23,30,14.52,0,IQ
88,Luocheng,1614794616,104.0286,29.3848,55.65,55,1.79,81,CN
89,Upington,1614794617,21.2561,-28.4478,89.6,20,2.3,20,ZA
90,Saint Paul Harbor,1614794617,-152.4072,57.79,33.8,60,17.27,90,US
91,Upernavik,1614794617,-56.1549,72.7868,13.12,96,10.63,100,GL
92,Svarstad,1614794618,9.9698,59.399,36.0,1,3.65,24,NO
93,Sobolevo,1614794618,31.8996,54.4299,32.27,84,12.46,8,RU
94,Guerrero Negro,1614794619,-114.0611,27.9769,66.65,41,10.0,2,MX
95,Catuday,1614794619,119.8062,16.2923,77.27,78,11.5,0,PH
96,Puerto Ayora,1614794404,-90.3518,-0.7393,84.2,79,10.36,20,EC
97,Arraial do Cabo,1614794620,-42.0278,-22.9661,86.0,58,19.57,20,BR
98,Chui,1614794620,-53.4616,-33.6971,77.7,78,15.57,81,UY
99,Chicama,1614794621,-79.1469,-7.8447,77.0,83,10.36,20,PE
100,Vaini,1614794621,-175.2,-21.2,77.0,94,5.75,75,TO
101,Fort Nelson,1614794621,-122.7002,58.8053,3.2,85,10.36,20,CA
102,Lodwar,1614794622,35.5973,3.1191,88.52,31,10.04,21,KE
103,Kiama,1614794623,150.8667,-34.6833,63.0,83,1.01,97,AU
104,Muros,1614794623,-9.0603,42.7762,61.0,67,0.92,35,ES
105,Port Pirie,1614794624,138.0167,-33.1833,60.8,72,9.22,40,AU
106,Manono,1614794624,27.4167,-7.3,70.16,96,1.99,100,CD
107,Narsaq,1614794625,-46.05,60.9167,44.6,31,35.68,75,GL
108,Vila do Maio,1614794625,-23.2167,15.1333,77.0,47,19.57,0,CV
109,Dikson,1614794626,80.5464,73.5069,-24.86,77,9.51,49,RU
110,Souillac,1614794626,57.5167,-20.5167,78.8,83,6.91,40,MU
111,Kununurra,1614794626,128.7333,-15.7667,80.6,78,4.61,100,AU
112,Arrondissement de Clermont,1614794627,2.4167,49.5,57.2,67,4.61,0,FR
113,Kudahuvadhoo,1614794628,72.8944,2.6708,82.22,71,14.83,1,MV
114,Mato Verde,1614794628,-42.8664,-15.3972,84.42,49,8.12,56,BR
115,Qasigiannguit,1614794629,-51.1922,68.8193,35.6,48,13.8,75,GL
116,Mahébourg,1614794629,57.7,-20.4081,78.8,83,6.91,40,MU
117,Bekhtery,1614794629,32.2927,46.251,37.4,65,8.95,0,UA
118,Naze,1614794630,129.4833,28.3667,57.92,73,13.69,70,JP
119,Airai,1614794630,125.4092,-8.9266,60.24,100,0.76,100,TL
120,Fortuna,1614794631,-124.1573,40.5982,52.0,93,4.03,90,US
121,Sambava,1614794631,50.1667,-14.2667,78.46,83,3.56,13,MG
122,Hasaki,1614794631,140.8333,35.7333,33.8,80,4.61,20,JP
123,Maun,1614794632,23.4167,-19.9833,78.8,57,2.3,20,BW
124,Nizhniy Odes,1614794632,54.856,63.6445,14.07,97,5.1,94,RU
125,Yumen,1614794633,97.2,40.2833,36.32,60,10.11,37,CN
126,Tivaouane,1614794633,-16.8129,14.9515,84.2,37,14.97,0,SN
127,Nyurba,1614794634,118.3319,63.2842,-26.16,85,6.55,99,RU
128,Saint-Joseph,1614794634,55.6167,-21.3667,78.8,83,10.36,0,RE
129,Porto-Novo,1614794634,2.6036,6.4965,87.8,74,14.97,20,BJ
130,Kaitangata,1614794635,169.8464,-46.2817,52.0,80,9.46,53,NZ
131,Meulaboh,1614794636,96.1285,4.1363,76.89,84,5.7,99,ID
132,Portland,1614794595,-122.6762,45.5234,46.0,87,3.44,75,US
133,Torbay,1614794637,-52.7314,47.6666,28.0,74,31.07,75,CA
134,Port Macquarie,1614794637,152.9167,-31.4333,64.0,97,1.01,79,AU
135,Butaritari,1614794638,172.7902,3.0707,81.1,82,16.22,3,KI
136,Tambacounda,1614794638,-13.7586,13.7539,105.8,29,4.61,0,SN
137,Niquelândia,1614794638,-48.4597,-14.4739,81.39,71,4.79,98,BR
138,Hervey Bay,1614794639,152.8535,-25.2986,75.99,74,3.0,16,AU
139,Constitución,1614794639,-72.4167,-35.3333,72.1,57,12.37,14,CL
140,Nsoko,1614794640,31.95,-27.0333,77.0,69,2.3,0,SZ
141,Mahon,1614794640,4.2658,39.8885,55.4,82,10.36,40,ES
142,Tuatapere,1614794640,167.6833,-46.1333,52.0,82,8.99,76,NZ
143,Cabo San Lucas,1614794502,-109.9124,22.8909,80.01,21,4.61,75,MX
144,São Filipe,1614794641,-24.4956,14.8961,74.05,64,10.65,37,CV
145,Rio Grande,1614794642,-52.0986,-32.035,82.4,42,11.5,75,BR
146,Trojes,1614794642,19.962,41.756,50.0,66,2.3,0,AL
147,Butajīra,1614794642,38.3667,8.1167,63.81,40,9.15,8,ET
148,Atuona,1614794575,-139.0333,-9.8,79.05,73,13.67,1,PF
149,Kāvali,1614794643,79.9833,14.9167,74.52,73,11.07,0,IN
150,Sitka,1614794644,-135.33,57.0531,37.4,81,3.44,75,US
151,Methóni,1614794644,21.7049,36.8197,55.99,66,8.55,0,GR
152,Quelimane,1614794644,36.8883,-17.8786,78.8,89,9.22,75,MZ
153,Aklavik,1614794645,-135.0107,68.2191,-23.8,69,4.61,100,CA
154,Uyo,1614794645,7.9266,5.0333,85.39,67,10.04,99,NG
155,Baiyin,1614794646,104.2081,36.5583,21.2,38,8.95,0,CN
156,Bilma,1614794646,12.9164,18.6853,74.34,9,8.25,0,NE
157,Rostovka,1614794647,71.8891,55.3842,19.99,97,13.2,100,RU
158,Bambous Virieux,1614794647,57.7575,-20.3428,78.8,83,6.91,40,MU
159,Havelock,1614794647,-76.9013,34.8791,54.0,61,4.0,100,US
160,Lensk,1614794647,114.9278,60.7253,-31.76,81,2.89,33,RU
161,Talnakh,1614794648,88.3972,69.4865,-24.18,70,9.57,9,RU
162,Delhi,1614794648,77.2167,28.6667,79.0,63,4.9,0,IN
163,Mount Gambier,1614794648,140.7667,-37.8333,55.4,71,5.75,90,AU
164,Kampong Chhnang,1614794648,104.55,12.1667,80.89,61,11.86,9,KH
165,San Patricio,1614794649,-97.5169,28.017,68.0,68,8.05,75,US
166,Saldanha,1614794649,17.9442,-33.0117,71.6,68,14.97,1,ZA
167,Bengkulu,1614794649,102.2655,-3.8004,77.38,80,3.98,99,ID
168,Volkhov,1614794650,32.3382,59.9258,33.01,89,11.27,100,RU
169,Longyearbyen,1614794650,15.6401,78.2186,10.4,56,4.61,20,SJ
170,Olafsvik,1614794650,-23.7142,64.8945,40.3,92,16.24,100,IS
171,Castro,1614794651,-50.0119,-24.7911,72.81,83,3.76,98,BR
172,Thompson,1614794651,-97.8558,55.7435,10.4,79,6.91,90,CA
173,Tessalit,1614794533,1.0114,20.1986,82.17,10,7.76,0,ML
174,La Asuncion,1614794652,-63.8628,11.0333,78.93,73,14.45,0,VE
175,Berlevåg,1614794652,29.0864,70.8578,28.4,80,9.22,40,NO
176,Ribeira Grande,1614794652,-28.7,38.5167,60.8,94,12.66,75,PT
177,Santa Maria da Boa Vista,1614794653,-39.8256,-8.8078,92.77,33,11.65,38,BR
178,Steinbach am Taunus,1614794653,8.5667,50.1667,55.99,66,3.44,0,DE
179,Jumla,1614794584,82.1838,29.2747,39.94,63,2.39,0,NP
180,Nuuk,1614794654,-51.7216,64.1835,44.01,49,2.3,20,GL
181,Bogoslovka,1614794654,44.8013,53.2084,21.45,90,9.84,99,RU
182,Taltal,1614794468,-70.4833,-25.4,71.17,67,6.91,35,CL
183,Nanortalik,1614794654,-45.2371,60.1432,38.41,74,19.01,83,GL
184,Korla,1614794655,86.1469,41.7597,38.14,71,3.11,65,CN
185,Inuvik,1614794655,-133.7218,68.3499,-23.8,69,4.61,100,CA
186,Rudnogorsk,1614794655,103.7519,57.2639,-28.88,86,2.01,73,RU
187,Iroquois Falls,1614794655,-80.6831,48.7669,17.6,79,9.22,90,CA
188,San Ramon,1614794639,-121.978,37.7799,57.0,54,2.93,1,US
189,San Jose,1614794176,-121.895,37.3394,59.0,66,10.36,90,US
190,Borås,1614794656,12.9401,57.721,34.0,93,6.91,90,SE
191,Suntar,1614794657,117.6319,62.1444,-34.53,96,4.63,60,RU
192,Khani,1614794657,42.9566,41.9563,41.0,93,12.66,90,GE
193,Husavik,1614794657,-17.3389,66.0449,32.0,80,10.98,75,IS
194,Delījān,1614794658,50.6838,33.9905,51.62,42,3.22,0,IR
195,Laguna,1614794658,-121.4238,38.421,54.0,50,3.44,1,US
196,Dunedin,1614794658,170.5036,-45.8742,53.01,81,4.0,68,NZ
197,Alta,1614794658,23.2717,69.9689,28.0,86,10.36,75,NO
198,Rosário Oeste,1614794658,-56.4275,-14.8361,81.95,85,7.78,60,BR
199,Chumikan,1614794659,135.315,54.7183,-1.84,92,2.53,100,RU
200,Manat,1614794659,126.0173,7.5327,78.8,69,4.61,75,PH
201,Mumford,1614794659,-0.759,5.2618,82.18,81,12.95,77,GH
202,Djenné,1614794660,-4.5533,13.9061,96.84,10,5.39,9,ML
203,High Level,1614794660,-117.136,58.5169,3.2,92,4.61,20,CA
204,College,1614794661,-147.8028,64.8569,-2.0,84,4.61,90,US
205,Tura,1614794661,90.2201,25.5198,65.71,26,2.84,0,IN
206,Vila,1614794662,-8.1588,42.0304,60.8,67,5.75,0,PT
207,Nizhniy Kuranakh,1614794662,125.4869,58.8353,-20.2,98,2.71,100,RU
208,Shitanjing,1614794663,106.3439,39.2342,35.6,63,3.49,0,CN
209,Leningradskiy,1614794663,178.4167,69.3833,-21.41,83,11.41,3,RU
210,Harper,1614794663,-7.7169,4.375,82.4,79,6.22,52,LR
211,Rincon,1614794664,-81.2354,32.296,52.0,82,12.66,90,US
212,Diapaga,1614794664,1.7889,12.0708,93.27,11,6.08,6,BF
213,Sibu,1614794664,111.8167,2.3,77.0,94,3.44,40,MY
214,Bako,1614794664,36.5667,5.7833,74.84,44,4.05,50,ET
215,Kieta,1614794665,155.6333,-6.2167,78.46,84,9.33,99,PG
216,Ust'-Kulom,1614794665,53.6902,61.6864,19.58,97,6.96,97,RU
217,Vrangel',1614794666,133.0839,42.7297,34.45,90,6.51,83,RU
218,La Ronge,1614794666,-105.2842,55.1001,23.0,74,1.14,32,CA
219,Laas,1614794666,10.7002,46.6166,46.99,65,1.86,0,IT
220,Vila Franca do Campo,1614794666,-25.4333,37.7167,59.0,82,17.27,40,PT
221,Broome,1614794667,-75.833,42.2506,42.01,52,11.5,90,US
222,Pryluky,1614794667,32.3876,50.5932,32.05,96,8.28,0,UA
223,Kapoeta,1614794668,33.5903,4.7717,89.53,21,13.13,89,SS
224,Noyabrsk,1614794668,75.4507,63.1994,11.53,93,17.52,100,RU
225,Krasnosel'kup,1614794669,82.4667,65.7,-0.81,91,21.0,100,RU
226,Jalingo,1614794473,11.3667,8.8833,89.38,12,3.8,100,NG
227,Saint-Philippe,1614794669,55.7679,-21.3585,78.8,83,10.36,0,RE
228,Along,1614794670,94.7667,28.1667,60.19,60,1.83,54,IN
229,Yashkul',1614794670,45.3435,46.1711,34.02,90,13.2,87,RU
230,Mamakan,1614794670,114.0028,57.8161,-21.01,95,3.06,100,RU
231,Homer,1614794671,-151.5483,59.6425,21.0,85,4.61,1,US
232,Rawson,1614794563,-65.1023,-43.3002,66.88,75,11.41,100,AR
233,Torrijos,1614794672,-4.2835,39.9819,60.01,67,2.3,20,ES
234,Ponta do Sol,1614794672,-17.1,32.6667,66.2,55,13.8,20,PT
235,Svilajnac,1614794672,21.1967,44.2337,50.0,43,2.3,0,RS
236,Dongsheng,1614794476,109.9776,39.8161,33.49,38,9.71,0,CN
237,Dawei,1614794673,98.2,14.0833,72.55,84,3.49,38,MM
238,Grindavik,1614794673,-22.4338,63.8424,39.2,93,26.46,90,IS
239,Razdolnaya,1614794673,39.5557,45.3799,37.0,75,8.95,20,RU
240,Cayenne,1614794673,-52.3333,4.9333,82.4,74,10.36,90,GF
241,San Andrés,1614794663,-81.7006,12.5847,86.0,62,12.66,20,CO
242,Jieshi,1614794674,115.8257,22.8134,66.0,71,13.35,70,CN
243,Waupun,1614794674,-88.7296,43.6333,46.4,70,3.44,1,US
244,Kotido,1614794675,34.1331,2.9806,79.81,31,12.75,14,UG
245,Oranjemund,1614794675,16.4333,-28.55,65.53,80,13.76,0,NA
246,Diamantino,1614794675,-56.4461,-14.4086,80.08,83,10.04,66,BR
247,Keïta,1614794676,5.7749,14.7551,95.0,7,9.22,0,NE
248,Paamiut,1614794676,-49.6678,61.994,41.41,66,9.64,69,GL
249,Krasnovishersk,1614794677,57.082,60.4078,20.66,97,5.88,100,RU
250,Gaoua,1614794677,-3.2508,10.2992,96.28,11,3.36,0,BF
251,Bintulu,1614794677,113.0333,3.1667,78.8,94,4.61,40,MY
252,Kamaishi,1614794677,141.8833,39.2667,32.83,91,5.12,71,JP
253,Mersing,1614794678,103.8405,2.4312,80.6,89,5.75,66,MY
254,Măxineni,1614794678,27.6333,45.4,48.2,59,5.99,0,RO
255,Areia Branca,1614794678,-37.1369,-4.9561,89.6,58,12.66,75,BR
256,Padang,1614794679,100.3543,-0.9492,75.2,94,4.54,40,ID
257,Bernalda,1614794679,16.692,40.4128,55.4,76,2.3,0,IT
258,Hong Kong,1614794679,114.1577,22.2855,66.0,83,1.01,85,HK
259,Tual,1614794679,132.75,-5.6667,83.07,75,16.84,100,ID
260,Shetpe,1614794680,52.1167,44.1667,37.06,83,11.52,83,KZ
261,Esperance,1614794680,121.9,-33.8667,64.4,82,12.66,100,AU
262,Semnan,1614794630,53.3971,35.5729,50.18,46,4.14,0,IR
263,Tignère,1614794680,12.65,7.3667,75.72,17,5.17,69,CM
264,Hamilton,1614794585,-84.5333,39.1834,57.2,35,10.36,1,US
265,Port Alfred,1614794681,26.891,-33.5906,71.01,91,3.0,68,ZA
266,Ban Nahin,1614794681,104.2122,18.2418,69.12,81,4.18,16,LA
267,La Palma,1614794642,-118.0467,33.8464,55.99,94,10.36,75,US
268,Baruun-Urt,1614794530,113.2792,46.6806,19.9,93,4.32,96,MN
269,Tautira,1614794682,-149.15,-17.7333,82.4,78,2.3,40,PF
270,Dakar,1614794414,-17.4441,14.6937,73.4,60,13.8,0,SN
271,Alexander City,1614794682,-85.9539,32.944,64.0,44,6.6,1,US
272,Shingū,1614794682,135.9833,33.7333,49.57,80,5.61,94,JP
273,Bud,1614794683,-86.1758,39.447,57.2,38,8.05,1,US
274,Aykhal,1614794683,111.5,66.0,-35.7,97,3.29,0,RU
275,Kingsville,1614794683,-97.8561,27.5159,69.8,52,4.61,75,US
276,Chokurdakh,1614794683,147.9167,70.6333,-31.54,96,6.35,100,RU
277,Il’inskiy,1614794684,38.1182,55.619,35.6,64,11.18,0,RU
278,Ulladulla,1614794684,150.4667,-35.35,59.0,82,3.44,75,AU
279,Varkaus,1614794685,27.873,62.3153,30.2,86,12.66,0,FI
280,Praia da Vitória,1614794685,-27.0667,38.7333,62.6,67,7.63,40,PT
281,Huarmey,1614794685,-78.1522,-10.0681,78.98,68,10.92,86,PE
282,Bereda,1614794686,-7.5406,43.2686,55.99,66,1.01,62,ES
283,Russell,1614794406,-85.1999,32.3502,60.01,50,4.61,1,US
284,Beira,1614794686,34.8389,-19.8436,80.6,83,8.05,20,MZ
285,Copiapó,1614794418,-70.3333,-27.3667,71.6,64,10.36,75,CL
286,Aquiraz,1614794687,-38.3911,-3.9014,86.0,66,16.11,20,BR
287,Atambua,1614794687,124.8925,-9.1061,73.45,88,1.9,97,ID
288,Slănic-Moldova,1614794687,26.4333,46.2,43.0,70,2.3,0,RO
289,Bathsheba,1614794688,-59.5167,13.2167,84.2,54,20.71,40,BB
290,Mâncio Lima,1614794688,-72.8958,-7.6142,84.2,84,3.44,75,BR
291,Beyneu,1614794688,55.2,45.3167,37.94,80,12.59,60,KZ
292,Kholodnyy,1614794689,147.95,62.7167,-28.05,82,2.3,100,RU
293,Bushenyi,1614794689,30.2114,-0.5853,65.88,71,1.48,97,UG
294,Araouane,1614794690,-3.5265,18.9048,84.97,13,7.76,5,ML
295,Miandrivazo,1614794690,45.4667,-19.5167,79.72,83,2.13,98,MG
296,Tonj,1614794690,28.6822,7.2737,87.26,18,4.34,53,SS
297,George Town,1614794690,100.3354,5.4112,82.0,89,3.02,20,MY
298,Port Blair,1614794691,92.75,11.6667,79.9,70,6.15,0,IN
299,Lorengau,1614794691,147.2712,-2.0226,81.99,78,13.76,100,PG
300,Ledyard Center,1614794692,-72.0142,41.4398,48.0,49,14.97,1,US
301,Krasnyy Chikoy,1614794692,108.7512,50.3643,10.13,92,2.86,99,RU
302,Kavaratti,1614794693,72.642,10.5669,82.54,70,8.3,0,IN
303,Halifax,1614794596,-63.5724,44.6453,34.0,37,28.77,20,CA
304,Anadyr,1614794694,177.4833,64.75,-2.2,78,13.42,40,RU
305,Tiarei,1614794694,-149.3333,-17.5333,82.4,78,2.3,40,PF
306,Alyangula,1614794694,136.4192,-13.8483,84.2,75,11.68,99,AU
307,Pauini,1614794695,-66.9764,-7.7136,86.5,67,2.42,84,BR
308,Kaminskiy,1614794695,41.4732,57.1516,28.63,98,11.99,100,RU
309,Cherskiy,1614794696,161.3,68.75,-20.83,84,6.89,76,RU
310,Gabú,1614794696,-14.2167,12.2833,104.81,10,2.28,19,GW
311,Kenai,1614794696,-151.2583,60.5544,7.0,84,3.44,20,US
312,Aden,1614794582,45.0367,12.7794,77.38,76,14.63,0,YE
313,Cidreira,1614794599,-50.2056,-30.1811,81.14,71,7.49,94,BR
314,Scarborough,1614794466,-0.4044,54.2797,39.0,89,1.01,100,GB
315,Khanbari,1614794698,87.2039,27.3747,55.36,36,3.27,0,NP
316,Lagoa,1614794698,-27.9833,39.05,59.02,84,15.7,43,PT
317,Mahibadhoo,1614794699,72.9667,3.7833,82.13,71,13.65,0,MV
318,Itarema,1614794699,-39.9167,-2.9248,84.63,68,14.61,89,BR
319,Maşyāf,1614794699,36.3406,35.0653,53.6,94,4.61,75,SY
320,Tarko-Sale,1614794700,77.785,64.9225,5.23,94,20.4,100,RU
321,Norden,1614794700,7.2,53.6,37.0,90,5.99,0,DE
322,Hare Bay,1614794700,-54.0148,48.8499,28.4,64,3.44,81,CA
323,Sirari,1614794701,34.4333,-1.2333,69.78,64,3.58,96,TZ
324,Taoudenni,1614794701,-3.9836,22.6783,80.92,13,8.68,100,ML
325,Luangwa,1614794701,30.4167,-15.6167,72.84,82,0.85,0,ZM
326,Pueblo Nuevo,1614794701,-105.3833,23.3833,76.39,18,6.02,25,MX
327,Hūn,1614794702,15.9477,29.1268,63.05,34,13.11,0,LY
328,Yakeshi,1614794702,120.7333,49.2833,3.61,95,0.43,30,CN
329,Yar-Sale,1614794702,70.8333,66.8333,6.08,94,13.22,100,RU
330,Tikhvin,1614794703,33.5294,59.6451,32.0,92,5.01,100,RU
331,Mackay,1614794703,149.2,-21.15,77.0,83,8.05,40,AU
332,Kendari,1614794703,122.4989,-3.945,75.33,91,3.13,98,ID
333,Tabou,1614794703,-7.3528,4.423,82.11,80,7.16,44,CI
334,Dedza,1614794704,34.3332,-14.3779,59.63,100,3.91,30,MW
335,Karagay,1614794704,54.9368,58.2667,14.7,96,5.95,94,RU
336,Dingle,1614794704,122.6711,10.9995,74.86,91,6.17,31,PH
337,Pisco,1614794704,-76.2167,-13.7,84.0,69,11.5,0,PE
338,Honiara,1614794705,159.95,-9.4333,76.91,94,4.7,100,SB
339,Bonavista,1614794705,-53.1147,48.6499,28.4,64,3.44,62,CA
340,Mardin,1614794705,40.7436,37.3131,50.0,62,9.22,20,TR
341,Eldorado,1614794706,-54.2836,-23.7869,83.95,63,7.34,67,BR
342,Kavieng,1614794706,150.7967,-2.5744,82.69,73,11.72,99,PG
343,Maceió,1614794522,-35.7353,-9.6658,86.0,62,17.27,75,BR
344,Kapit,1614794707,112.9333,2.0167,74.28,95,1.19,98,MY
345,Norman Wells,1614794707,-126.8329,65.282,-16.6,76,1.03,75,CA
346,Black River,1614794708,-77.8487,18.0264,82.99,69,9.22,20,JM
347,Bālāghāt,1614794708,80.1833,21.8,71.15,20,4.47,0,IN
348,Gubkinskiy,1614794708,76.5026,64.434,7.25,94,20.18,100,RU
349,Matara,1614794708,80.5353,5.9485,76.23,74,11.54,2,LK
350,Suez,1614794709,32.5263,29.9737,57.56,53,15.21,55,EG
351,Ixtapa,1614794414,-105.2,20.7,73.4,68,8.05,1,MX
352,Marawi,1614794709,124.2928,7.9986,73.0,86,11.01,87,PH
353,East London,1614794710,27.9116,-33.0153,68.0,94,11.5,90,ZA
354,Kruisfontein,1614794710,24.7314,-34.0033,71.01,81,3.0,31,ZA
355,Nizhneudinsk,1614794462,99.0276,54.9076,-14.33,87,1.32,77,RU
356,Jacareacanga,1614794710,-57.7528,-6.2222,86.0,70,8.05,40,BR
357,Lüderitz,1614794711,15.1594,-26.6481,71.49,59,17.18,0,NA
358,Vittoria,1614794711,14.5332,36.9537,59.0,77,8.05,0,IT
359,Surgut,1614794711,73.4167,61.25,12.2,85,8.95,75,RU
360,Mount Isa,1614794452,139.5,-20.7333,86.0,21,10.36,92,AU
361,Kunming,1614794449,102.7183,25.0389,55.4,44,4.47,0,CN
362,Khovd,1614794712,91.6419,48.0056,22.08,74,6.26,29,MN
363,Jām Sāhib,1614794713,68.6292,26.2958,71.6,64,4.61,0,PK
364,Vestmannaeyjar,1614794713,-20.2734,63.4427,37.4,87,32.21,90,IS
365,Peski,1614794713,38.7626,55.2163,35.6,64,11.18,0,RU
366,Wilmington,1614794714,-77.9447,34.2257,53.6,58,10.36,90,US
367,Gorontalo,1614794714,123.0595,0.5412,74.66,89,2.3,92,ID
368,Strezhevoy,1614794714,77.5889,60.7333,15.8,86,11.18,90,RU
369,Agoura Hills,1614794714,-118.7745,34.1364,54.0,73,11.41,35,US
370,Pamatawan,1614794715,120.2136,14.9278,78.8,69,3.44,20,PH
371,Yatou,1614794715,122.3833,37.15,38.89,84,9.31,85,CN
372,Bolama,1614794716,-15.4667,11.5833,81.79,57,16.91,7,GW
373,Banda Aceh,1614794716,95.3222,5.5577,79.12,80,4.76,99,ID
374,Esso,1614794716,158.7,55.9333,-2.02,90,23.04,72,RU
375,Amalāpuram,1614794716,82.0167,16.5833,69.62,89,0.27,0,IN
376,Tame,1614794717,-71.73,6.461,92.68,25,10.6,4,CO
377,Klaksvík,1614794717,-6.589,62.2266,35.6,75,14.97,20,FO
378,Asău,1614794717,26.4,46.4333,41.0,58,5.06,8,RO
379,Languyan,1614794718,120.0807,5.2618,78.76,84,4.34,1,PH
380,Baghdad,1614794524,44.4009,33.3406,66.2,39,8.05,0,IQ
381,Vanimo,1614794718,141.3028,-2.6741,77.9,85,9.93,100,PG
382,Aksarka,1614794718,67.7975,66.5606,4.82,94,7.02,100,RU
383,Carmo do Rio Claro,1614794719,-46.1189,-20.9719,78.08,64,5.26,99,BR
384,Isangel,1614794719,169.2667,-19.55,80.71,83,16.15,100,VU
385,Vancouver,1614794719,-123.1193,49.2497,45.0,65,9.22,90,CA
386,Port Hedland,1614794720,118.5667,-20.3167,78.8,89,4.61,40,AU
387,Tuktoyaktuk,1614794720,-133.0374,69.4541,-29.2,75,4.61,20,CA
388,Nome,1614794721,-165.4064,64.5011,-9.4,64,2.71,1,US
389,Puerto Cabello,1614794721,-68.0125,10.4731,87.8,35,12.15,40,VE
390,Gīdolē,1614794721,37.3667,5.65,68.92,41,1.79,33,ET
391,Ostrovnoy,1614794722,39.5131,68.0531,17.11,88,7.31,100,RU
392,Padilla,1614794722,-76.3139,3.2204,80.6,69,11.5,40,CO
393,Knysna,1614794722,23.0471,-34.0363,68.0,77,3.44,20,ZA
394,Kloulklubed,1614794723,134.2556,7.0419,77.0,88,5.75,75,PW
395,Kibara,1614794723,33.45,-2.15,75.2,69,5.75,40,TZ
396,Thinadhoo,1614794716,72.9333,0.5333,82.15,70,13.24,12,MV
397,Kaitong,1614794724,123.15,44.8135,29.53,91,9.84,73,CN
398,Saurimo,1614794724,20.3916,-9.6608,69.24,90,1.99,96,AO
399,Port-Gentil,1614794724,8.7815,-0.7193,84.2,84,10.36,40,GA
400,Bac Lieu,1614794725,105.7244,9.285,78.33,80,15.73,24,VN
401,Poum,1614794725,164.0167,-20.2333,80.8,77,12.3,100,NC
402,Taseyevo,1614794725,94.8978,57.2169,-18.06,86,5.66,53,RU
403,Lander,1614794726,-108.7307,42.833,50.0,20,3.69,1,US
404,Valkla,1614794726,25.3186,59.4744,37.99,87,19.57,75,EE
405,Pevek,1614794727,170.3133,69.7008,-12.77,82,4.12,45,RU
406,Calvinia,1614794727,19.776,-31.4707,73.6,27,6.82,0,ZA
407,Shache,1614794727,77.2406,38.4167,43.86,36,4.29,72,CN
408,West Bay,1614794728,-81.4167,19.3667,84.2,65,5.75,20,KY
409,Mungaoli,1614794728,78.1,24.4167,69.94,21,0.92,0,IN
410,Yingkou,1614794728,122.2283,40.6648,35.83,82,14.9,0,CN
411,Pemangkat,1614794729,108.9667,1.1667,77.99,88,8.75,57,ID
412,Kovdor,1614794729,30.4758,67.5662,19.27,96,5.08,100,RU
413,Kulhudhuffushi,1614794730,73.07,6.6221,82.45,70,6.06,54,MV
414,Granadilla de Abona,1614794730,-16.576,28.1188,69.01,60,16.11,20,ES
415,Sept-Îles,1614794730,-66.3821,50.2001,19.0,53,10.36,75,CA
416,Salalah,1614794731,54.0924,17.0151,77.0,78,2.3,0,OM
417,Ronse,1614794714,3.6049,50.7505,55.0,74,1.99,30,BE
418,Bonito,1614794438,-56.4819,-21.1211,88.52,58,6.67,42,BR
419,Trat,1614794731,102.5,12.5,77.0,99,1.25,55,TH
420,Sangmélima,1614794732,11.9833,2.9333,80.58,59,4.36,61,CM
421,Kautokeino,1614794732,23.0412,69.0125,13.35,92,7.85,97,NO
422,Mossamedes,1614794733,12.1522,-15.1961,74.93,83,4.83,5,AO
423,Pekan Nenas,1614794733,103.5141,1.51,77.0,88,4.59,20,MY
424,Priyutovo,1614794733,53.9333,53.9,16.43,98,9.24,99,RU
425,Dzhebariki-Khaya,1614794734,135.8,62.2167,-20.27,86,1.92,100,RU
426,Ust'-Omchug,1614794524,149.6333,61.15,-25.6,81,5.03,100,RU
427,Yashiro,1614794734,134.9667,34.9167,37.0,67,1.01,86,JP
428,Belaya Gora,1614794735,146.4167,68.5333,-36.71,83,3.2,99,RU
429,Arinos,1614794735,-46.1056,-15.9169,83.66,59,6.49,95,BR
430,Teguise,1614794735,-13.564,29.0605,69.8,60,16.11,20,ES
431,Mae Sai,1614794656,99.8762,20.4335,69.8,88,2.3,20,TH
432,Ayagoz,1614794736,80.4392,47.9714,2.97,93,8.32,2,KZ
433,Esik,1614794736,77.4525,43.3552,30.2,93,6.71,90,KZ
434,Makakilo City,1614794736,-158.0858,21.3469,71.6,60,4.61,1,US
435,Ogbomosho,1614794737,4.25,8.133,90.52,15,5.01,84,NG
436,San-Pédro,1614794737,-6.6363,4.7485,82.44,79,6.51,96,CI
437,Kabare,1614794738,28.8242,-2.4683,63.54,88,2.33,100,CD
438,Beringovskiy,1614794738,179.3167,63.05,-4.67,91,14.0,100,RU
439,Buraidah,1614794438,43.975,26.326,71.6,40,14.97,0,SA
440,Hualmay,1614794738,-77.6139,-11.0964,79.16,60,12.03,61,PE
441,Nebbi,1614794739,31.0889,2.4783,81.75,30,5.99,81,UG
442,Pizarro,1614794739,-77.366,4.9533,82.45,72,3.22,88,CO
443,Ambilobe,1614794740,49.05,-13.2,76.5,88,0.85,99,MG
444,Wattegama,1614794740,81.4808,6.7989,69.1,86,3.71,0,LK
445,Kayerkan,1614794740,87.7602,69.3497,-22.92,72,8.14,15,RU
446,Luau,1614794740,22.2247,-10.7073,68.61,90,3.87,85,AO
447,Lídice,1614794741,-79.9,8.75,93.2,46,13.8,20,PA
448,Nelidovo,1614794741,32.7774,56.2211,35.2,83,12.48,100,RU
449,Yuzhnyy,1614794741,83.6936,53.2542,10.4,85,8.95,40,RU
450,Abu Dhabi,1614794461,54.3667,24.4667,80.6,73,4.61,0,AE
451,Tucumã,1614794742,-50.05,-0.1833,80.64,86,6.87,92,BR
452,Thakurgaon,1614794742,88.4667,26.0333,66.22,23,4.09,0,BD
453,Marathon,1614794742,-89.7668,44.9,39.2,69,9.22,1,US
454,Port Hardy,1614794743,-127.4199,50.6996,41.0,87,18.41,90,CA
455,Qaqortoq,1614794743,-46.0333,60.7167,44.6,31,35.68,75,GL
456,Mitú,1614794744,-70.1733,1.1983,88.54,49,2.13,51,CO
457,Ignacio Zaragoza,1614794744,-107.2167,28.3833,66.99,18,8.99,2,MX
458,Troitskoye,1614794744,84.6757,52.9821,10.13,95,6.96,94,RU
459,Huaicheng,1614794745,112.1931,23.9051,57.99,90,1.36,85,CN
460,Cockburn Town,1614794745,-71.1419,21.4612,80.6,50,13.8,40,TC
461,Conceição do Araguaia,1614794745,-49.2647,-8.2578,83.59,73,4.88,71,BR
462,Acaraú,1614794746,-40.12,-2.8856,84.63,68,15.3,75,BR
463,Avon Park,1614794746,-81.5062,27.5959,75.99,76,8.99,50,US
464,Elesbão Veloso,1614794746,-42.1403,-6.2019,85.33,66,4.83,47,BR
465,Sabha,1614794746,14.4283,27.0377,63.07,23,9.26,0,LY
466,São João do Piauí,1614794747,-42.2467,-8.3581,89.37,51,5.5,28,BR
467,Samarai,1614794747,150.6667,-10.6167,81.34,79,14.88,100,PG
468,Novoil'insk,1614794748,108.7143,51.6829,1.31,89,6.38,82,RU
469,Morant Bay,1614794748,-76.4093,17.8815,84.2,65,17.27,20,JM
470,Oktyabr'skoye,1614794749,44.7417,43.0645,32.0,93,8.95,90,RU
471,Mana,1614794749,-53.7767,5.6592,81.0,75,12.41,88,GF
472,Cabras,1614794750,8.5314,39.93,52.43,81,4.74,26,IT
473,Lárdos,1614794750,28.0157,36.0942,60.01,58,10.36,0,GR
474,Port Moresby,1614794750,147.1797,-9.4431,73.4,94,5.75,75,PG
475,Mehamn,1614794751,27.8492,71.0357,26.6,86,24.16,75,NO
476,Madaba Governorate,1614794751,35.6667,31.5833,48.2,81,9.22,30,JO
477,Yangi Marg`ilon,1614794751,71.7189,40.4272,44.6,65,4.61,96,UZ
478,Whitehorse,1614794752,-135.0538,60.7161,12.99,85,3.44,20,CA
479,Soure,1614794752,-48.5233,-0.7167,82.69,72,10.8,28,BR
480,Silifke,1614794753,33.9344,36.3778,54.21,62,9.08,74,TR
481,Peniche,1614794753,-9.3811,39.3558,62.01,79,11.01,34,PT
482,Deep River,1614794753,-77.4995,46.1001,28.4,80,6.49,90,CA
483,Mehrān,1614794753,46.1646,33.1222,46.4,57,2.3,0,IR
484,Iquitos,1614794754,-73.2472,-3.7481,82.4,74,5.75,75,PE
485,Ust'-Barguzin,1614794754,108.9833,53.45,-5.58,87,6.51,95,RU
486,Barrhead,1614794754,-4.3929,55.7992,39.2,81,9.22,90,GB
487,Teya,1614794755,92.6267,60.3778,-14.73,84,3.51,76,RU
488,Gondanglegi,1614794755,112.0132,-7.7479,74.77,85,0.81,98,ID
489,Barcelos,1614794755,-8.6151,41.5388,64.0,67,3.44,0,PT
490,Thabazimbi,1614794756,27.4116,-24.5917,73.13,36,0.96,7,ZA
491,Akdağmadeni,1614794756,35.8836,39.6603,30.0,93,6.24,0,TR
492,Mitzic,1614794757,11.549,0.7821,77.05,78,4.47,66,GA
493,São Gabriel da Cachoeira,1614794757,-67.0892,-0.1303,84.2,74,4.61,75,BR
494,Bārmer,1614794758,71.3833,25.75,73.36,19,9.55,0,IN
495,Caravelas,1614794758,-39.2481,-17.7125,83.88,60,9.04,46,BR
496,Penha,1614794758,-48.6458,-26.7694,82.4,74,10.36,75,BR
497,Mount Hagen,1614794759,144.2274,-5.8581,57.76,89,1.05,100,PG
498,Amapá,1614794759,-52.0,1.0,81.01,88,4.25,69,BR
499,Lichtenburg,1614794759,26.1597,-26.152,64.99,54,6.89,48,ZA
500,Gazli,1614794759,63.45,40.1333,46.09,47,6.38,0,UZ
501,Wad Medani,1614794582,33.5199,14.4012,80.74,16,13.98,63,SD
502,Mogadishu,1614794760,45.3438,2.0371,78.96,79,22.95,82,SO
503,Kamenka,1614794760,42.7678,51.3223,26.01,78,8.68,61,RU
504,Youghal,1614794761,-7.8506,51.95,44.01,87,5.75,75,IE
505,Paso de los Toros,1614794761,-56.5167,-32.8167,87.8,58,10.36,75,UY
506,Ndjolé,1614794761,10.7649,-0.1783,81.1,83,3.62,39,GA
507,Kandrian,1614794762,149.55,-6.2167,79.95,82,19.55,100,PG
508,Nemuro,1614794762,145.575,43.3236,23.02,67,12.55,0,JP
509,Boende,1614794762,20.8667,-0.2167,81.5,56,1.88,93,CD
510,Manakara,1614794763,48.0167,-22.1333,78.21,83,5.44,54,MG
511,Pandan,1614794763,124.1694,14.0453,78.64,79,12.37,48,PH
512,Zeitz,1614794764,12.15,51.05,52.0,67,7.47,16,DE
513,Conde,1614794764,-34.9075,-7.2597,86.0,66,16.11,40,BR
514,Darnah,1614794765,22.6367,32.767,55.44,67,21.52,29,LY
515,Pacifica,1614794724,-122.4869,37.6138,55.99,67,6.02,90,US
516,Port Lincoln,1614794765,135.8667,-34.7333,58.57,84,16.15,1,AU
517,Jaguaribe,1614794766,-38.6219,-5.8906,92.55,39,8.03,19,BR
518,Supe,1614794766,-77.7333,-10.8,78.48,65,11.59,47,PE
519,Natchez,1614794766,-91.4032,31.5604,55.4,54,10.36,1,US
520,Raymondville,1614794766,-97.7831,26.4815,71.6,46,6.85,1,US
521,Grand-Santi,1614794767,-54.3833,4.25,84.09,64,6.29,86,GF
522,Øksfjord,1614794767,22.3479,70.2396,28.4,74,10.36,75,NO
523,Cabo Rojo,1614794767,-67.1457,18.0866,86.0,61,7.0,11,PR
524,Grand Gaube,1614794768,57.6608,-20.0064,78.01,79,3.0,1,MU
525,Saint-Pierre,1614794768,55.4781,-21.3393,78.8,83,10.36,0,RE
526,Codrington,1614794768,141.9667,-38.2667,56.59,73,6.38,87,AU
527,Lata,1614794768,-8.3327,40.1629,63.0,77,5.01,18,PT
528,Te Anau,1614794622,167.7167,-45.4167,45.41,80,4.05,32,NZ
529,Claveria,1614794769,121.0832,18.6074,74.48,85,12.66,19,PH
530,Belmonte,1614794770,-38.8828,-15.8631,82.4,65,9.22,40,BR
531,Corby,1614794770,-0.6894,52.4964,43.0,93,8.05,90,GB
532,São Francisco de Assis,1614794770,-55.1311,-29.5503,92.23,40,5.91,34,BR
533,Marzuq,1614794770,46.4667,14.4,63.84,55,5.99,0,YE
534,Moroni,1614794771,43.2551,-11.7022,80.17,78,11.27,18,KM
535,Udachny,1614794772,112.4,66.4167,-38.54,79,3.36,0,RU
536,Denpasar,1614794729,115.2167,-8.65,80.6,89,4.61,40,ID
537,Kuvshinovo,1614794772,34.1725,57.0295,32.23,98,11.92,100,RU
538,Zlobin,1614794772,14.6541,45.2924,50.0,76,3.44,0,HR
539,Ozernovskiy,1614794773,156.5167,51.5,13.53,93,36.95,100,RU
540,Ode,1614794773,5.7117,7.7899,86.77,26,4.43,60,NG
541,Isakly,1614794773,51.5333,54.1333,21.74,96,12.3,98,RU
542,Narathiwat,1614794774,101.75,6.3333,80.6,83,5.75,20,TH
543,Chapais,1614794774,-74.8492,49.7834,1.4,60,9.22,1,CA
544,Lufilufi,1614794774,-171.5986,-13.8745,75.2,94,5.75,20,WS
545,Shelburne,1614794775,-80.2041,44.0787,37.4,75,5.75,90,CA
546,Upata,1614794775,-62.3989,8.0086,87.01,60,3.0,79,VE
547,Caçu,1614794775,-51.1308,-18.5567,84.52,61,5.39,76,BR
548,Porto Nacional,1614794776,-48.4172,-10.7081,78.8,89,4.61,90,BR
549,Leh,1614794594,77.5833,34.1667,18.64,83,4.63,42,IN
550,Taman',1614794776,36.7161,45.2117,30.2,74,2.24,4,RU
551,Seymchan,1614794777,152.4333,62.8833,-24.83,96,9.19,100,RU
552,Brae,1614794777,-1.353,60.3964,44.6,81,6.91,40,GB
553,Markala,1614794777,-6.0659,13.7021,96.55,11,4.12,9,ML
554,Sørland,1614794777,12.6934,67.667,35.6,75,21.85,40,NO
555,Koróni,1614794778,21.95,36.8,55.99,66,7.09,0,GR
556,Arrondissement de Chartres,1614794590,1.5,48.4167,55.99,70,3.27,26,FR
557,Mannārakkāt,1614794778,76.4667,10.9833,80.6,74,3.74,20,IN
558,Ugoofaaru,1614794779,73.0,5.6667,82.92,68,8.57,73,MV
559,Pangnirtung,1614794779,-65.7125,66.1451,-4.0,71,4.61,75,CA
560,Roald,1614794779,6.1333,62.5833,35.6,64,9.22,75,NO
561,Roebourne,1614794779,117.1333,-20.7833,79.56,68,6.82,0,AU
